ChargerId,OperatorAbb,OperatorName,City,Lat,Lon
BRG-00022,BLU,"Bluecharge, Lda",Braga,41.546707,-8.39805
GRD-00037,CAB,Cable Exanergia Portugal,Guarda,40.56584,-7.224364
LSB-00278,GLG,Galpgeste,Lisboa,38.77945,-9.12389
LSB-00583,CAB,Cable Exanergia Portugal,Lisboa,38.71374,-9.144441
PRT-00247,CAB,Cable Exanergia Portugal,Porto,41.14713,-8.631777
CDN-00017,FCT,"CHARGING TOGETHER, UNIPESSOAL LDA",Condeixa-a-Nova,40.10727,-8.511538
CDN-00018,FCT,"CHARGING TOGETHER, UNIPESSOAL LDA",Condeixa-a-Nova,40.10727,-8.511538
CDN-00019,FCT,"CHARGING TOGETHER, UNIPESSOAL LDA",Condeixa-a-Nova,40.10727,-8.511538
CDN-00020,FCT,"CHARGING TOGETHER, UNIPESSOAL LDA",Condeixa-a-Nova,40.10727,-8.511538
