ChargerId,OperatorAbb,OperatorName,City,Lat,Lon
LRA-00117,FCT,"CHARGING TOGETHER, UNIPESSOAL LDA",Leiria,39.82819,-8.683001
PTL-00022,FCT,"CHARGING TOGETHER, UNIPESSOAL LDA",Ponte de Lima,41.782803,-8.58666
PTL-00023,FCT,"CHARGING TOGETHER, UNIPESSOAL LDA",Ponte de Lima,41.782803,-8.58666
VNF-00063,FCT,"CHARGING TOGETHER, UNIPESSOAL LDA",Vila Nova de Famalicão,41.348507,-8.537214
ACB-00052,FCT,"CHARGING TOGETHER, UNIPESSOAL LDA",Alcobaça,39.545452,-8.969396
ACB-00055,FCT,"CHARGING TOGETHER, UNIPESSOAL LDA",Alcobaça,39.545452,-8.969396
LRS-00222,FCT,"CHARGING TOGETHER, UNIPESSOAL LDA",Loures,38.8544,-9.146632
