ChargerId,OperatorAbb,OperatorName,City,Lat,Lon
AVR-00023,IBD,"Iberdrola Clientes Portugal, Unipessoal, Lda",Aveiro,40.623516,-8.650138
AVR-00024,IBD,"Iberdrola Clientes Portugal, Unipessoal, Lda",Aveiro,40.623516,-8.650138
MTS-00033,IBD,"Iberdrola Clientes Portugal, Unipessoal, Lda",Matosinhos,41.17722,-8.682098
MTS-00034,IBD,"Iberdrola Clientes Portugal, Unipessoal, Lda",Matosinhos,41.17722,-8.682098
ORM-00006,HRZ,"Powerdot, S.A",Ourém,39.653522,-8.590289
SXL-00064,FCT,"CHARGING TOGETHER, UNIPESSOAL LDA",Seixal,38.60995,-9.098627
CTB-00081,FCT,"CHARGING TOGETHER, UNIPESSOAL LDA",Castelo Branco,39.802338,-7.535808
