ChargerId,OperatorAbb,OperatorName,City,Lat,Lon
CBR-00017,GLG,Galpgeste,Coimbra,40.222107,-8.430705
CSC-00047,GLG,Galpgeste,Cascais,38.711285,-9.393527
LSB-00277,GLG,Galpgeste,Lisboa,38.77945,-9.12223
LSB-00670,ATL,"Atlante Infra Portugal, S.A",Lisboa,38.768482,-9.172888
LSB-80134,GLP,Galp Power OPC,Lisboa,38.72916,-9.123114
VFR-00010,GLG,Galpgeste,Santa Maria da Feira,40.92342,-8.56922
VLG-00006,IBD,"Iberdrola Clientes Portugal, Unipessoal, Lda",Valongo,41.210697,-8.546541
VLG-00007,IBD,"Iberdrola Clientes Portugal, Unipessoal, Lda",Valongo,41.210697,-8.546541
AND-00029,GLP,Galp Power OPC,Anadia,40.441986,-8.449781
