ChargerId,OperatorAbb,OperatorName,City,Lat,Lon
AVR-90003,EDP,EDP Comercial,Aveiro,40.639324,-8.651681
CLD-00030,EDP,EDP Comercial,Caldas da Rainha,39.42933,-9.15787
CSC-90001,EDP,EDP Comercial,Cascais,38.694607,-9.420383
FAR-90002,EDP,EDP Comercial,Faro,37.016308,-7.935801
GRD-00022,EDP,EDP Comercial,Guarda,40.413548,-7.675034
LSB-90045,EDP,EDP Comercial,Lisboa,38.75761,-9.094753
LSB-90110,EDP,EDP Comercial,Lisboa,38.70967,-9.14245
